,Country,City,Latitude,Longitude,Current Temp(c),Max Temp(c),Humidity (%),Cloudiness,Windspeed (mps)
0,US,Owatonna,44.0839,-93.226,-2.34,-1.17,77,100,5.14
1,IN,Tālbahat,25.05,78.4333,42.61,42.61,8,3,5.82
2,DK,Ejby,55.4858,12.0817,11.82,14.48,54,38,2.06
3,CZ,Vranovice,48.966,16.6066,10.96,13.24,57,93,3.04
4,IT,San Donà di Piave,45.6317,12.5694,14.79,15.79,40,21,2.36
5,PL,Sucha Beskidzka,49.7419,19.5943,5.31,10.01,69,70,2.83
6,AT,Pottendorf,47.9,16.3833,7.84,10.18,53,75,3.09
7,FR,Saint-Saulve,50.3714,3.5561,16.4,18.28,46,36,3.37
8,KZ,Semey,50.4111,80.2275,25.12,25.12,11,0,3.0
9,IT,Arluno,45.5051,8.9415,15.38,17.25,37,16,0.89
10,PH,Maloma,15.1135,120.0639,33.01,33.01,70,69,3.25
11,IT,Oga,46.4631,10.347,8.0,10.45,75,5,2.39
12,JP,Ogawa,36.05,139.2667,12.23,12.24,95,100,2.76
13,US,Winter Garden,28.5653,-81.5862,21.12,22.23,83,91,0.45
14,US,Rexburg,43.826,-111.7897,2.51,2.99,60,0,0.0
15,US,Rathdrum,47.8137,-116.892,-0.23,2.45,85,0,3.6
16,IN,Pālitāna,21.5167,71.8333,36.62,36.62,11,0,2.58
17,RU,Yavas,54.4159,42.8491,3.9,3.9,89,100,3.28
18,HU,Hőgyész,46.497,18.4184,9.07,9.07,46,94,3.33
19,HU,Buják,47.8835,19.5438,9.69,9.69,41,54,1.58
20,UG,Kilembe,0.2,30.0,22.23,22.23,77,99,1.47
21,MX,Puruarán,19.1,-101.5333,20.95,20.95,24,58,1.63
22,US,Suffern,41.1148,-74.1496,-0.2,4.38,77,2,1.02
23,GB,Bath,51.3779,-2.3591,12.38,13.86,71,100,3.65
24,TN,Ksar Hellal,35.6477,10.8905,16.83,16.83,55,0,6.69
25,RU,Mezinovskiy,55.5042,40.3593,7.37,7.37,50,100,4.08
26,US,Fairview Shores,28.5911,-81.3942,21.15,22.29,80,40,2.06
27,GB,Aylesbury,51.8167,-0.8146,12.55,15.05,70,100,3.26
28,NO,Hemnesberget,66.2333,13.6333,6.43,6.43,84,100,2.02
29,ES,Benavente,42.0025,-5.6783,14.25,14.25,44,0,3.34
30,PH,Tagbac,7.089,125.1567,23.38,23.38,93,97,1.85
31,AL,Kuçovë,40.8003,19.9167,10.51,10.51,74,100,2.89
32,BR,Umbuzeiro,-7.6956,-35.6636,22.67,22.67,86,100,1.67
33,US,Mount Holly,35.2982,-81.0159,9.93,11.13,96,100,4.12
34,LK,Beruwala,6.4788,79.9828,29.77,29.77,69,100,4.21
35,MY,George Town,5.4112,100.3354,27.87,28.86,84,40,6.26
36,IN,Sīra,13.7453,76.9092,34.69,34.69,26,34,3.94
37,US,Country Club Hills,41.5681,-87.7203,0.37,1.25,93,100,0.0
38,IN,Manjeshwar,12.7194,74.8861,33.53,33.53,63,58,6.4
39,RO,Valea Mare,44.4667,24.4333,7.94,7.94,67,100,4.35
40,SV,Nueva Guadalupe,13.5333,-88.35,22.34,22.34,86,100,0.86
41,NP,Birin,26.8865,88.0718,21.59,21.59,63,33,1.9
42,BR,Guaçuí,-20.7756,-41.6794,15.74,15.74,92,28,0.78
43,US,Avon,41.4517,-82.0354,1.86,2.81,58,0,4.63
44,RU,Armizonskoye,55.9461,67.6736,8.46,8.46,44,91,3.56
45,RU,Krasnoarmeyskiy,47.0114,42.2072,19.29,19.29,49,100,7.69
46,BE,Staden,50.9504,3.0183,16.19,17.3,47,52,3.86
47,RO,Brezoi,45.338,24.2486,9.43,9.43,38,15,1.13
48,RU,Borinskoye,52.4569,39.3713,9.85,9.85,81,100,4.47
49,DE,Bad Salzuflen,52.0862,8.7443,15.01,16.65,43,1,2.49
50,ZA,George,-33.963,22.4617,19.75,19.75,64,20,3.09
51,IN,Sanvordem,15.2667,74.1167,31.88,31.88,39,10,5.31
52,ES,Aranjuez,40.0311,-3.6025,18.98,20.6,33,33,0.57
53,GR,Kéfalos,36.7453,26.9589,19.12,19.12,59,40,8.75
54,BE,Boussu,50.4342,3.7944,16.24,18.25,39,71,2.06
55,US,Tama,41.9667,-92.5769,0.36,1.29,88,82,4.78
56,RU,Kalinin,47.2468,39.5109,17.54,18.3,47,98,7.12
57,CH,Aesch,47.471,7.5973,13.13,14.86,39,0,2.57
58,CZ,Třeboň,49.0036,14.7707,6.45,8.09,65,100,2.94
59,RU,Novyy Buyan,53.6861,50.0469,18.09,18.09,65,99,2.24
60,SV,Jucuarán,13.2539,-88.2478,21.59,21.59,80,88,0.91
61,IN,Mehndāwal,26.9753,83.1117,43.47,43.47,4,0,4.72
62,IN,Noāmundi,22.15,85.5333,41.13,41.13,6,2,2.79
63,FR,Issy-les-Moulineaux,48.821,2.2772,15.6,16.94,45,0,2.57
64,RU,Klin,56.3333,36.7333,8.56,8.56,42,15,3.7
65,US,Twin Falls,42.3505,-114.6445,-0.04,-0.04,69,68,3.76
66,BR,Bambuí,-20.0064,-45.9769,15.39,15.39,85,18,1.44
67,HU,Nyírábrány,47.5531,22.024,7.8,7.8,35,4,4.12
68,PH,Malaiba,10.3333,123.3167,26.32,26.32,79,24,3.41
69,RU,Sloboda,51.1421,40.3021,17.66,17.66,50,100,6.18
70,CO,San Estanislao,10.3983,-75.1511,27.94,27.94,91,100,1.44
71,CN,Hulan Ergi,47.2042,123.6333,18.16,18.16,27,95,3.38
72,CO,Majagual,8.5389,-74.6204,23.13,23.13,98,99,0.74
73,PL,Łęczyca,52.0596,19.1997,10.63,10.86,44,93,4.29
74,CN,Guiren,33.6697,118.1889,17.64,17.64,56,98,1.39
75,RU,Miatli,43.0817,46.8286,24.22,24.22,32,59,3.58
76,PH,Mabini,15.6,120.9833,28.28,28.28,63,31,5.16
77,AT,Vomp,47.3333,11.6833,12.11,12.57,40,26,2.08
78,MX,Tocuila,18.95,-97.0167,19.17,19.17,52,8,1.9
79,GB,Tamworth,52.634,-1.6959,12.42,13.6,62,100,1.79
80,BO,Santa Cruz de la Sierra,-17.8,-63.1667,18.7,18.7,68,75,4.12
81,RU,Revda,56.801,59.9303,1.5,1.5,98,100,2.82
82,US,Revere,42.4084,-71.012,1.59,4.0,70,0,2.57
83,US,West Wendover,40.7391,-114.0733,5.56,5.56,42,0,2.06
84,NA,Otavi,-19.65,17.3333,27.25,27.25,40,38,4.77
85,JP,Kamo,37.65,139.05,14.23,14.23,70,100,1.82
86,PH,Calayaan,15.5662,120.5158,32.53,32.53,57,78,2.41
87,EE,Rakke,58.9817,26.2544,9.52,9.52,62,100,2.45
88,TJ,Altyn-Topkan,40.6528,69.5998,22.26,22.26,38,100,4.77
89,BR,Crateús,-5.1783,-40.6775,22.02,22.02,97,91,0.42
90,EC,Baños,-1.4,-78.4167,14.16,14.16,94,100,0.14
91,DE,Esslingen am Neckar,48.7396,9.3047,14.14,15.4,41,0,2.57
92,IN,Vadakku Valliyūr,8.3833,77.65,32.72,32.72,54,83,3.96
93,ZA,Temba,-25.3803,28.2631,21.01,21.72,53,33,2.81
94,IT,Provincia di Salerno,40.45,15.2667,11.48,11.48,46,94,3.9
95,RU,Sovetsk,55.0839,21.8785,9.59,9.59,43,74,4.14
96,FR,Le Creusot,46.8071,4.4163,17.04,17.04,37,100,1.44
97,JP,Ebina,35.42,139.39,12.36,14.44,88,100,4.12
98,IN,Tiruvannamalai,12.2167,79.0667,39.24,39.24,25,11,3.61
99,CO,Argelia,2.2556,-77.2488,18.59,18.59,99,100,0.36
100,TH,Phetchabun,16.25,101.0833,24.15,24.15,61,86,4.22
101,IN,Thenzawl,23.3167,92.75,30.99,30.99,31,32,2.73
102,RU,Radchenko,56.6803,36.3718,8.57,8.57,40,2,3.32
103,JP,Tomobe,36.35,140.3,13.89,14.89,95,100,1.94
104,IN,Chaklāsi,22.65,72.9333,38.98,38.98,8,0,6.0
105,US,Rochester,43.1548,-77.6156,-2.18,0.05,85,0,0.45
106,RU,Karachev,53.1229,34.9852,1.05,1.05,99,100,5.41
107,AR,San Vicente,-26.6167,-54.1333,10.82,10.82,91,6,0.87
108,BR,São José do Rio Preto,-20.8197,-49.3794,15.15,15.15,77,0,4.12
109,NG,Mbamba,9.9833,13.1,32.79,32.79,41,100,2.58
110,MX,Ciudad de Villa de Álvarez,19.25,-103.7333,18.93,18.93,88,46,0.75
111,IN,Chengalpattu,12.7,79.9833,34.84,34.84,47,22,7.16
112,PH,Lucap,16.1833,120.0,29.23,29.23,67,89,4.64
113,PR,Dorado,18.4588,-66.2677,23.43,24.29,94,96,4.67
114,CA,Peachland,49.7665,-119.7357,6.46,7.66,46,100,0.73
115,US,Montgomery,39.1501,-77.1997,3.3,6.12,60,0,1.54
116,SN,Kolda,12.8833,-14.95,25.17,25.17,61,0,2.06
117,NG,Kaura Namoda,12.5898,6.5779,32.72,32.72,32,84,3.32
118,LU,Lintgen,49.7158,6.1336,14.28,15.2,38,0,4.12
119,US,Garland,32.9126,-96.6389,11.56,12.88,84,0,3.6
120,RO,Corbu,44.3833,28.65,7.85,7.85,66,75,8.23
121,US,Socorro,31.6546,-106.3033,18.23,21.72,14,0,1.68
122,EE,Vasalemma,59.2442,24.29,9.08,10.12,46,0,4.12
123,US,Olympia,47.0379,-122.9007,7.29,10.4,91,100,2.06
124,GQ,Mbini,1.574,9.6134,29.5,29.5,68,97,2.03
125,US,Cape Coral,26.5629,-81.9495,22.45,24.44,81,15,1.55
126,GQ,Aconibe,1.2968,10.9369,25.23,25.23,77,100,0.98
127,FR,Nogent-sur-Oise,49.2716,2.4707,15.34,16.34,48,56,0.98
128,US,Lawrence,38.9717,-95.2353,2.38,3.45,96,98,2.22
129,RO,Vultureni,46.3667,27.2833,7.99,8.23,36,87,6.0
130,IN,Chhoti Sādri,24.3833,74.7,40.25,40.25,7,8,4.71
131,GB,Dundee,56.5,-2.9667,11.0,11.95,78,40,7.72
132,US,West Freehold,40.2421,-74.3013,1.54,5.4,64,0,3.09
133,SV,Intipucá,13.1969,-88.0544,26.36,26.36,74,97,0.46
134,PR,Boquerón,18.0269,-67.1691,24.4,26.08,78,100,0.89
135,ES,Erandio,43.3079,-2.945,13.94,14.21,75,75,2.24
136,US,Westfield,42.1251,-72.7495,-0.82,2.57,84,0,0.0
137,MX,Guadalupe,25.6833,-100.25,25.67,26.33,74,83,0.79
138,PA,Chame,8.5833,-79.8833,26.64,26.64,99,98,2.11
139,SR,Albina,5.5,-54.05,23.14,23.14,97,98,0.58
140,BR,Santa Maria,-29.6842,-53.8069,13.61,13.61,100,75,2.06
141,BE,Messancy,49.592,5.8188,14.56,15.55,37,98,1.79
142,HU,Kartal,47.6713,19.542,9.75,11.35,44,82,1.83
143,US,Glenview,42.0698,-87.7878,0.7,1.63,92,100,1.54
144,US,Roseville,38.7521,-121.288,8.07,11.79,66,0,4.63
145,NL,Heerhugowaard,52.6714,4.8486,17.09,18.33,43,96,1.34
146,HN,Punta Ocote,15.2,-87.2833,21.05,21.05,86,90,1.0
147,IN,Mulbāgal,13.1667,78.4,33.27,33.27,28,55,4.73
148,HN,Aramecina,13.7422,-87.7103,26.48,26.48,73,100,0.8
149,MA,Nador,35.174,-2.9287,20.14,23.04,73,0,1.54
150,IT,Manduria,40.4018,17.6335,13.83,14.43,50,100,10.07
151,IN,Risod,19.9667,76.7833,38.96,38.96,10,0,3.46
152,MX,Santo Domingo de Guzmán,19.5883,-99.7747,14.7,14.7,57,57,1.17
153,BF,Kokologo,12.1897,-1.8856,31.92,31.92,9,78,4.34
154,HN,Támara,14.15,-87.3333,17.7,17.7,93,100,0.0
155,PH,Glan Padidu,5.8539,125.223,29.75,29.75,80,89,0.27
156,PH,Totolan,9.6329,123.847,27.34,27.34,80,42,4.2
157,BR,Piritiba,-11.7303,-40.5553,20.18,20.18,94,100,3.25
158,IN,Theog,31.1167,77.35,25.96,25.96,14,0,3.83
159,CA,Dryden,49.7833,-92.7503,-4.84,-4.84,93,100,3.09
160,HU,Törtel,47.1221,19.9371,8.74,10.57,39,52,4.28
161,IN,Jhālāwār,24.6,76.15,41.78,41.78,9,4,3.96
162,MX,Progreso,21.2833,-89.6667,22.9,22.9,82,29,4.1
163,GB,Aberfeldy,56.62,-3.8645,10.85,11.17,64,99,4.18
164,FR,Arrondissement de Soissons,49.3333,3.3333,14.12,14.12,46,43,2.38
165,UA,Boyany,48.2708,26.1262,8.86,8.86,39,47,3.16
166,MX,Yaqui,27.3667,-110.1667,23.06,23.06,26,95,3.44
167,PH,Talangnan,9.634,123.3344,25.41,25.41,77,30,4.12
168,PE,Chongoyape,-6.6406,-79.3892,21.77,21.77,77,86,0.5
169,RU,Luza,60.6308,47.2512,5.82,5.82,71,98,3.21
170,UA,Nova Mayachka,46.6,33.2271,4.3,4.3,92,100,7.24
171,RO,Tăuteu,47.2667,22.3333,9.86,9.86,39,5,3.75
172,RO,Mihai Viteazu,46.5333,23.75,7.85,7.96,42,75,2.06
173,AT,Hard,47.4941,9.6806,12.2,15.88,57,3,0.89
174,RO,Bălcăuţi,47.8915,26.0728,7.43,7.49,41,54,3.77
175,CH,Saint-Imier,47.1528,6.9969,10.4,11.29,42,1,1.42
176,DE,Hilchenbach,50.9833,8.1,13.94,16.55,29,0,2.04
177,HU,Dorog,47.721,18.7364,11.52,11.52,44,61,2.04
178,MX,Sahuaripa,29.05,-109.2333,19.88,19.88,14,12,1.91
179,MX,Tatahuicapan,18.2333,-94.75,22.79,22.79,81,6,1.12
180,US,Melville,40.7934,-73.4151,2.84,5.43,64,5,2.07
181,MX,Guanajuato City,21.0186,-101.2591,17.32,17.32,66,7,3.0
182,RU,Kazaki,52.6248,38.2649,6.68,6.68,90,100,4.82
183,CZ,Oloví,50.2511,12.5588,11.35,14.1,32,48,2.12
184,MN,Khovd,48.0056,91.6419,17.66,17.66,9,41,0.84
185,UA,Auly,48.5271,34.4949,4.02,4.02,94,100,5.72
186,PL,Swidnica,50.8438,16.4886,10.97,11.43,47,62,4.37
187,AM,Meghri,38.9029,46.2446,23.33,23.33,24,96,1.14
188,IT,Cossato,45.5739,8.1817,15.45,16.56,40,7,2.57
189,BR,Taquara,-29.6506,-50.7806,14.16,15.82,84,25,1.4
190,HN,El Rincón,14.5833,-87.9333,17.68,17.68,90,90,0.8
191,BR,Itamaracá,-7.7478,-34.8256,27.03,27.03,69,92,2.61
192,PH,Lucena City,13.9314,121.6172,29.49,29.49,79,7,4.93
193,UA,Hulyaypole,47.6653,36.2578,14.82,14.82,72,100,2.59
194,IN,Tezu,27.9167,96.1667,26.02,26.02,58,70,0.28
195,HU,Jászárokszállás,47.6424,19.9804,8.9,11.02,38,48,2.82
196,CN,Qinnan,33.2531,119.9133,16.34,16.34,66,52,2.31
197,DE,Wiesbaden,50.0833,8.25,14.7,16.75,37,0,4.12
198,US,South Jordan,40.5622,-111.9297,5.46,8.81,61,0,1.54
199,TR,Malkara,40.89,26.9011,2.01,2.01,99,100,7.43
200,TH,Takhli,15.2634,100.3438,29.3,29.3,54,95,6.53
201,PL,Gorzów Wielkopolski,52.7368,15.2288,10.22,13.8,37,47,2.24
202,BE,Eupen,50.6295,6.0382,15.27,16.43,33,81,2.68
203,JP,Ishikari,43.2397,141.3539,6.03,6.26,93,75,1.54
204,IN,Mādhogarh,26.276,79.1869,44.2,44.2,6,3,4.75
205,FR,Coudekerque-Branche,51.0229,2.3936,15.33,16.76,60,20,3.09
206,CN,Shancheng,34.7953,116.0817,19.04,19.04,38,40,3.46
207,LU,Keispelt,49.6944,6.0694,14.13,14.98,38,0,4.12
208,CZ,Kraslice,50.3237,12.5175,10.78,13.94,47,48,2.42
209,BR,Guarujá,-23.9931,-46.2564,19.94,19.94,26,9,1.45
210,EG,Giza,30.0081,31.2109,26.41,26.41,24,100,3.82
211,RO,Stâlpeni,45.05,24.9667,9.23,9.23,36,69,2.1
212,IT,Adria,45.0564,12.0578,14.95,16.12,44,16,3.9
213,BG,Rakitovo,41.9833,24.0833,2.5,2.5,86,100,2.06
214,CN,Baijiantan,45.6333,85.1833,25.77,25.77,7,23,3.63
215,GT,San Antonio Ilotenango,15.0547,-91.2297,12.85,12.91,77,47,1.12
216,IR,Khorramshahr,30.4397,48.1664,30.98,30.98,15,0,4.12
217,BR,Bom Despacho,-19.7364,-45.2522,15.01,15.01,84,49,1.79
218,DK,Næstved,55.2299,11.7609,11.14,14.52,51,19,2.92
219,MX,Cosolapa,18.5833,-96.65,24.16,24.16,67,26,0.78
220,PH,Labney,16.1028,120.4655,29.36,29.36,67,60,5.33
221,TH,Wichian Buri,15.6578,101.106,30.44,30.44,56,93,6.24
222,IN,Kanpur,26.4667,80.35,44.2,44.2,5,1,4.94
223,US,Euclid,41.5931,-81.5268,2.22,2.84,59,0,5.14
224,HU,Röszke,46.188,20.0337,10.05,10.05,41,22,4.47
225,PL,Szczecin,53.4289,14.553,10.44,12.28,61,79,2.8
226,VN,Hong Gai,20.956,107.0946,20.95,20.95,74,100,1.66
227,AU,Kununurra,-15.7667,128.7333,29.99,29.99,70,39,2.57
228,SI,Verd,45.9567,14.3058,12.8,14.36,37,39,3.13
229,TH,Sungai Padi,6.0851,101.8766,31.57,31.88,69,95,2.58
230,IN,Mairang,25.5667,91.6333,19.95,19.95,51,11,2.32
231,DE,Bremerhaven,53.55,8.5833,13.71,15.14,55,1,3.73
232,RO,Cernica,44.4167,26.2833,11.29,12.93,49,40,2.06
233,IN,Kohima,25.6667,94.1167,19.43,19.43,42,26,2.33
234,IN,Rabkavi,16.4667,75.1,37.0,37.0,20,24,1.86
235,GB,Hastings,50.8552,0.5729,14.05,15.22,77,100,2.21
236,RO,Prăjeni,47.5167,27.0167,9.09,9.37,38,58,4.35
237,SV,Guazapa,13.8769,-89.1731,23.92,23.92,89,86,0.73
238,RU,Goreloye,52.937,41.5043,8.27,8.27,88,100,4.19
239,US,Sierra Vista,31.5545,-110.3037,12.97,15.32,15,0,4.63
240,IT,San Pietro in Casale,44.6996,11.4022,14.7,16.03,39,10,1.95
241,PT,Lustosa,41.3408,-8.3172,15.47,15.5,66,0,1.28
242,RU,Uchkeken,43.9378,42.5117,23.35,23.35,26,100,1.99
243,RO,Coloneşti,44.65,24.6667,7.69,7.69,56,98,3.54
244,RU,Kyshtovka,56.555,76.6271,5.59,5.59,57,100,4.36
245,BI,Makamba,-4.1348,29.804,22.34,22.34,75,67,2.74
246,PL,Ciechocinek,52.8791,18.7951,11.78,11.98,37,39,4.18
247,JP,Ogawara,38.0516,140.7155,13.79,13.88,83,100,2.49
248,NI,Niquinohomo,11.9052,-86.0945,24.36,24.36,78,92,1.24
249,PH,Mandaon,12.2259,123.2842,28.17,28.17,71,40,4.85
250,PH,San Policarpo,12.1791,125.5072,27.35,27.35,71,15,3.72
251,LY,Sabha,27.0377,14.4283,24.21,24.21,21,0,4.93
252,TZ,Ngudu,-2.9667,33.3333,27.44,27.44,46,82,3.08
253,US,Fort Dodge,42.4975,-94.168,-2.0,-2.0,80,0,5.66
254,MX,Santa Ana Chiautempan,19.3167,-98.1833,16.47,16.47,50,27,1.09
255,ID,Waingapu,-9.6567,120.2641,27.78,27.78,78,77,2.51
256,CA,Kirkland Lake,48.1446,-80.0377,-8.84,-8.84,92,25,1.99
257,IT,Spinea,45.4931,12.1606,14.41,16.12,36,0,2.06
258,US,Waverly,42.7392,-84.6208,0.17,0.64,78,100,2.21
259,GR,Nea Kallikrateia,40.3167,23.0667,9.76,10.48,93,100,2.18
260,BE,Denderleeuw,50.8875,4.0593,16.53,18.75,46,82,3.14
261,ID,Rantauprapat,2.1,99.8333,24.64,24.64,97,100,0.72
262,IN,Hāpur,28.7167,77.7833,43.07,43.07,5,0,5.31
263,LU,Altwies,49.5106,6.2572,14.81,15.94,39,0,4.12
264,RU,Persianovskiy,47.5137,40.1075,18.29,18.29,55,0,8.0
265,FR,Arrondissement de Brive-la-Gaillarde,45.25,1.5,17.03,17.03,48,40,1.56
266,BR,Timbaúba,-7.5053,-35.3183,25.4,25.4,82,97,1.45
267,PH,Mapili,11.1081,122.7393,26.02,26.02,81,12,2.93
268,UA,Sarata,46.0197,29.6657,9.92,9.92,36,97,7.95
269,RU,Sinyavino,59.9078,31.0711,11.49,11.67,68,100,1.55
270,ID,Teluk Nibung,3.001,99.8164,26.5,26.5,86,100,1.58
271,DE,Hofheim,50.0865,8.4473,14.56,16.73,46,0,4.12
272,GB,Kingswood,51.4528,-2.5083,11.7,12.59,69,75,3.6
273,PH,Taal,13.9,120.9333,28.0,28.0,63,15,3.85
274,US,Beeville,28.4008,-97.7483,20.35,20.9,100,100,1.54
275,PT,Malveira,38.9321,-9.2578,14.47,15.49,74,75,8.23
276,PH,Paulba,13.7136,123.2496,25.59,25.59,76,2,4.48
277,RU,Ispravnaya,44.0682,41.6102,25.7,25.7,24,80,3.13
278,CO,Pelaya,8.6882,-73.6645,23.34,23.34,96,74,0.24
279,IN,Māndal,25.45,74.5667,40.66,40.66,9,5,6.67
280,BE,Arendonk,51.3227,5.0829,16.38,18.19,43,100,2.8
281,CO,Zetaquira,5.2822,-73.169,15.99,15.99,95,95,0.67
282,IT,Chivasso,45.1894,7.8872,15.12,17.05,39,0,1.54
283,RO,Gostavăţu,44.0833,24.5333,7.51,7.51,65,100,3.23
284,TH,Chaiyaphum,15.75,102.0,31.14,31.14,52,100,2.07
285,US,Vineland,39.4862,-75.0257,0.62,1.46,57,100,3.0
286,PT,Unhos,38.8259,-9.1223,16.06,16.92,72,20,8.23
287,PL,Janów Lubelski,50.707,22.4104,7.34,7.35,48,58,4.94
288,RO,Măceşu de Jos,43.8833,23.7167,7.12,7.12,68,100,0.98
289,US,Lomita,33.7922,-118.3151,12.64,14.95,89,27,1.34
290,CU,Yaguajay,22.3272,-79.2378,22.26,22.26,84,9,1.75
291,BA,Gornje Živinice,44.4286,18.6169,9.68,9.68,29,20,4.12
292,BR,Pitangui,-19.6828,-44.8903,16.87,16.87,80,72,2.12
293,IR,Hashtrūd,37.4779,47.0508,18.12,18.12,16,38,2.11
294,US,Norwood,42.1945,-71.1995,0.11,3.21,80,0,4.92
295,IT,Provincia di Cremona,45.2333,9.9333,14.87,16.86,27,27,2.32
296,TZ,Nyamuswa,-1.9,34.0167,28.09,28.09,47,88,1.29
297,RU,Rudnichnyy,59.617,52.4703,6.38,6.38,52,23,0.77
298,AR,Puerto Rico,-26.796,-55.024,12.19,12.19,99,13,0.66
299,CU,Batabanó,22.7164,-82.2881,19.29,19.29,82,0,2.22
300,RO,Parincea,46.4833,27.1,7.66,10.12,46,75,5.66
301,NZ,Wellington,-41.2866,174.7756,10.04,12.81,85,1,2.06
302,RU,Gubden,42.5681,47.5658,10.12,10.2,40,46,5.27
303,JP,Shiki,35.8333,139.5833,12.73,14.99,97,100,4.27
304,RU,Bykovo,55.6361,38.0803,8.7,8.85,37,0,5.0
305,HU,Sajólád,48.05,20.9,9.37,9.37,41,52,3.07
306,NE,Téra,14.0078,0.7531,33.39,33.39,10,56,4.04
307,CO,Silos,7.2052,-72.7564,10.44,10.44,94,100,0.85
308,IN,Ahmednagar,19.0833,74.7333,37.75,37.75,10,0,2.98
309,PH,Mallig,17.1411,121.6831,26.92,26.92,75,78,3.11
310,HU,Nyírpazony,47.9833,21.8,9.3,9.3,37,7,3.76
311,IN,Katangi,23.45,79.7833,41.59,41.59,8,3,4.3
312,TH,Khanu Woralaksaburi,16.0617,99.8606,32.76,32.76,49,74,4.22
313,IN,Faizpur,21.1667,75.85,41.95,41.95,9,2,4.75
314,IT,Treviso,45.6667,12.245,14.18,16.67,38,0,2.24
315,CL,Valparaíso,-33.0393,-71.6273,12.49,12.49,77,100,2.06
316,HR,Pula,44.8683,13.8481,14.31,14.31,26,0,8.75
317,NO,Frogner,60.0167,11.1,12.24,12.24,54,40,1.54
318,CN,Fuyu,45.1833,124.8167,14.91,14.91,20,54,5.19
319,CO,Purificación,3.8587,-74.9313,21.98,21.98,92,93,0.93
320,CH,Schattdorf,46.8655,8.6547,11.64,13.17,65,0,2.33
321,NO,Reinsvoll,60.6833,10.6167,11.35,11.35,51,72,0.79
322,BR,Tiradentes,-21.1103,-44.1781,12.23,12.23,95,7,1.5
323,US,Warr Acres,35.5226,-97.6189,4.51,5.51,86,0,4.12
324,RU,Staropesterevo,54.5001,86.4094,9.96,9.96,66,100,4.92
325,PH,Daguit,14.1895,122.7266,24.78,24.78,80,26,2.9
326,BR,Padre Paraíso,-17.0742,-41.4844,17.24,17.24,93,100,2.36
327,GR,Athikia,37.8167,22.9333,10.09,10.33,85,100,1.61
328,PH,Subaan,13.0765,121.3647,25.92,25.92,86,28,3.21
329,RU,Olenegorsk,68.15,33.3,3.44,3.44,100,100,2.33
330,PH,Camohaguin,13.9103,122.1678,26.39,26.39,74,3,5.02
331,RU,Il’inskiy,55.619,38.1182,8.68,8.84,37,0,5.0
332,IT,Favara,37.3175,13.6623,14.66,15.79,47,13,4.39
333,US,Olean,42.0776,-78.4297,-1.81,-1.68,68,0,3.09
334,ES,Écija,37.5422,-5.0826,21.88,21.88,43,89,2.72
335,PH,Looc,12.2605,121.9926,27.21,27.21,75,8,3.41
336,RO,Budacu de Jos,47.0833,24.5167,7.83,7.83,35,37,3.16
337,BE,Jodoigne,50.7236,4.8691,15.88,17.91,41,20,2.57
338,JP,Inuyama,35.38,136.9429,14.21,14.25,92,100,1.93
339,MX,Jolalpan,18.325,-98.8417,23.88,23.88,35,81,0.74
340,RU,Arkhangel’skoye,55.8549,35.3287,7.88,7.88,48,28,4.97
341,IT,Campi Bisenzio,43.8246,11.1324,16.07,17.83,34,0,4.63
342,PK,Bahawalpur,29.4,71.6833,41.95,41.95,12,67,5.56
343,ES,Castilleja de la Cuesta,37.3859,-6.0526,21.52,22.68,63,0,3.13
344,PH,Talisay City,10.2447,123.8494,30.01,30.01,70,75,3.6
345,NL,Bodegraven,52.0825,4.75,16.64,18.34,44,93,2.68
346,HU,Kunszentmiklós,47.027,19.1258,10.79,11.6,51,100,2.64
347,DE,Plattling,48.7833,12.8667,12.29,13.12,45,85,1.02
348,PH,Magdalena,14.1999,121.429,28.53,28.53,80,8,3.68
349,RO,Pietroşani,45.1833,24.85,8.41,8.41,39,45,2.47
350,RO,Bratca,46.9333,22.6167,7.6,7.6,36,13,3.71
351,IN,Arang,21.2,81.9667,41.18,41.18,8,8,3.2
352,US,Fort Dix,40.0298,-74.6185,0.13,4.75,68,0,0.0
353,PH,Quezon,7.7303,125.0989,24.62,24.62,92,100,1.67
354,PL,Międzychód,52.5988,15.897,13.79,13.79,40,78,3.37
355,PH,Sangat,10.136,123.6896,30.0,30.0,79,61,3.81
356,CZ,Sázava,49.8716,14.8967,10.96,13.79,60,100,4.35
357,PH,Odiong,10.2858,123.0526,27.56,27.56,74,38,2.12
358,LV,Seda,57.65,25.75,10.03,10.03,43,93,2.68
359,RO,Snagov,44.7,26.1833,9.07,12.67,43,40,2.57
360,RU,Chadan,51.2833,91.5833,20.74,20.74,12,70,3.65
361,MT,Floriana,35.8958,14.5083,16.2,16.56,63,40,8.75
362,RO,Boldeşti,44.8667,26.5333,9.13,9.13,33,100,4.02
363,RS,Bač,45.3919,19.2367,10.0,10.0,37,8,4.79
364,PH,Tamayong,7.1331,125.3797,22.55,22.55,94,97,1.68
365,US,Middletown,39.5151,-84.3983,5.08,6.05,65,100,3.09
366,HU,Újszász,47.3,20.0833,9.0,9.0,54,30,3.93
367,BE,Sombreffe,50.5286,4.5984,15.55,17.99,38,0,2.57
368,PR,Sabana Grande,18.0777,-66.9604,23.47,25.42,81,100,1.34
369,ES,Mahon,39.8885,4.2658,18.31,18.31,52,0,2.57
370,US,Arvin,35.2091,-118.8284,14.98,17.47,45,97,1.07
371,DZ,Tigzirt,36.8886,4.1198,18.52,18.52,52,64,2.11
372,PK,Jaranwala,31.3333,73.4333,42.84,42.84,6,20,1.86
373,US,Santa Paula,34.3542,-119.0593,11.49,14.58,86,0,0.0
374,HN,Güinope,13.8833,-86.9333,17.05,17.88,68,100,0.5
375,RU,Stavrovo,56.1331,40.013,7.55,7.55,48,88,4.23
376,GR,Eleousa,39.7064,20.7925,7.85,7.85,87,100,1.54
377,CN,Dongsheng,39.8161,109.9776,12.24,12.24,18,0,5.16
378,CN,Ma’anshan,31.6957,118.4983,21.03,21.03,59,100,2.36
379,PH,Doljo,9.5875,123.7303,28.04,28.04,77,27,4.41
380,US,White Center,47.5173,-122.3549,8.58,9.92,71,100,2.68
381,US,Brentwood,40.7812,-73.2462,2.93,4.86,65,0,1.54
382,CO,Chinavita,5.1672,-73.3682,14.44,14.44,96,99,0.27
383,MX,Las Juntas,19.4167,-104.7,18.22,18.22,91,99,1.28
384,FR,Rouen,49.4431,1.0993,12.57,15.22,79,100,3.09
385,US,Santa Fe Springs,33.9472,-118.0854,12.68,15.44,88,0,0.0
386,US,Elk Grove Village,42.0039,-87.9704,0.59,1.56,91,100,1.54
387,ID,Kisaran,2.9845,99.6158,25.72,25.72,93,100,0.64
388,SK,Trencin,48.8333,18.25,8.23,9.36,44,44,3.31
389,CA,Charlottetown,46.2352,-63.1267,2.07,2.29,86,20,5.14
390,UA,Horishni Plavni,49.0097,33.6455,5.44,5.44,77,100,4.78
391,US,Lynden,48.9465,-122.4521,9.3,11.84,48,100,2.57
392,MX,Telchac Pueblo,21.2,-89.2667,21.07,21.07,88,17,1.76
393,RU,Bogatoye,53.0601,51.3325,18.41,18.41,43,83,3.82
394,RO,Spinuş,47.2,22.2,10.03,10.03,39,7,3.97
395,RU,Girey,45.4012,40.6587,24.22,24.22,42,59,6.77
396,IN,Sohna,28.25,77.0667,42.13,42.13,5,0,3.89
397,GB,Comrie,56.3791,-3.9949,10.71,10.72,67,100,5.19
398,US,Knoxville,35.9606,-83.9207,10.77,12.84,91,100,6.69
399,UA,Kolochava,48.4285,23.6959,5.08,5.08,40,89,1.96
400,SI,Radovljica,46.3444,14.1744,10.78,13.05,25,33,1.28
401,PK,Minchianabad,30.163,73.5685,42.8,42.8,7,65,4.02
402,BR,Louveira,-23.0864,-46.9506,13.81,13.81,93,5,3.41
403,IN,Ūttukkuli,11.1667,77.4333,34.56,34.56,31,23,1.84
404,CD,Kampene,-3.6,26.6667,32.8,32.8,42,29,0.8
405,BR,Auriflama,-20.6856,-50.5547,13.26,13.26,95,0,2.82
406,JP,Kogota,38.55,141.05,13.94,13.94,88,100,3.85
407,US,Palos Verdes Estates,33.8006,-118.3901,12.4,14.26,89,23,1.34
408,RO,Salcia Tudor,45.3667,27.5167,9.69,9.69,33,100,7.73
409,PL,Grodków,50.6984,17.3845,8.97,11.64,46,85,4.29
410,PH,Bangad,15.5036,121.0275,28.27,28.27,64,39,4.73
411,IR,Bushehr,28.9684,50.8385,26.05,26.05,50,75,7.2
412,RO,Moşoaia,44.8167,24.7667,7.56,7.56,50,91,2.75
413,CA,Logan Lake,50.4998,-120.8025,1.91,1.91,78,100,3.57
414,ES,Vigo,42.2328,-8.7226,18.14,18.14,59,20,4.12
415,RO,Feldioara,45.8167,25.6,8.6,9.77,41,77,1.4
416,CO,Leiva,1.9339,-77.3025,17.17,17.17,98,100,0.28
417,ES,San Roque,36.2107,-5.3842,19.46,19.46,60,0,4.12
418,VN,Long Xuyen,10.3833,105.4167,29.97,29.97,52,97,4.87
419,US,Berea,41.3662,-81.8543,1.81,2.63,59,54,3.13
420,SI,Solkan,45.9714,13.6494,15.02,16.55,35,44,2.24
421,NZ,Whitianga,-36.8333,175.7,18.1,18.1,91,100,8.19
422,PK,Shujaabad,29.8797,71.2931,37.03,37.03,10,93,4.24
423,US,Mt. Pleasant,32.7941,-79.8626,18.0,18.99,97,100,5.14
424,US,Scott Lake,25.9415,-80.232,23.75,25.57,85,40,1.54
425,US,Milford,41.2223,-73.0565,1.38,4.66,69,0,0.89
426,RU,Pelym,61.0108,61.9978,5.46,5.46,62,80,3.77
427,PH,Joson,15.9257,120.9912,27.58,27.58,64,14,2.23
428,CN,Hulan,45.9833,126.6,13.06,13.06,20,39,3.72
429,MX,Palmar de Bravo,18.8333,-97.5667,14.84,14.84,51,17,1.85
430,IT,Dolo,45.4283,12.0725,14.56,16.13,41,16,2.53
431,BE,Blankenberge,51.3131,3.1323,15.31,17.2,57,40,3.98
432,US,Fortuna,40.5982,-124.1573,7.46,8.32,70,0,5.66
433,MX,Ciudad del Carmen,18.6333,-91.8333,25.76,25.76,73,1,6.76
434,RO,Trifeşti,47.45,27.5167,9.93,10.6,40,76,4.61
435,US,Northbrook,42.1275,-87.8289,0.67,1.63,90,100,1.54
436,RU,Pionerskiy,54.9508,20.2275,8.91,8.91,65,64,4.07
437,UA,Chystyakove,48.0388,38.5969,18.43,18.43,50,98,6.1
438,RO,Boiu Mare,47.4,23.5833,6.43,6.43,40,34,2.82
439,PL,Solec Kujawski,53.0837,18.2257,10.71,12.58,36,0,5.14
440,JP,Kitakyushu,33.8333,130.8333,16.52,16.94,45,0,4.63
441,NG,Emure,7.4361,5.4593,26.41,26.41,77,100,1.61
442,TZ,Mlimba,-8.8,35.8167,29.01,29.01,68,32,0.92
443,BR,Santo Antônio do Tauá,-1.1519,-48.1294,23.97,23.97,97,100,0.44
444,RU,Sovetskaya,44.7769,41.1722,24.77,24.77,37,59,5.73
445,CZ,Janovice nad Úhlavou,49.3451,13.2181,10.69,12.84,59,88,2.33
446,IR,Pārsābād,39.6482,47.9174,15.18,15.18,77,100,2.06
447,PH,Garcia Hernandez,9.6144,124.2946,26.98,26.98,84,71,6.07
448,FR,Schiltigheim,48.6075,7.7493,15.01,16.62,33,0,2.57
449,US,Shafter,35.5005,-119.2718,14.19,17.81,67,100,3.98
450,GR,Ormylia,40.3,23.55,9.66,10.03,70,100,5.96
451,PH,Bogtong,15.7536,120.3285,28.58,28.58,71,92,1.75
452,RU,Volgodonsk,47.5136,42.1514,19.17,19.17,47,100,7.86
453,BA,Šekovići,44.2986,18.8528,9.25,9.25,40,9,4.61
454,CD,Goma,-1.6792,29.2228,22.32,22.32,76,83,1.47
455,GT,La Esperanza,14.8667,-91.5667,9.75,10.69,40,72,1.52
456,CO,El Peñón,8.9892,-73.9486,23.01,23.01,98,95,0.52
457,CO,Morales,2.757,-76.6172,15.39,15.39,97,100,0.18
458,US,Milton,34.1322,-84.3007,16.48,17.74,95,100,1.11
459,US,Concord,37.978,-122.0311,6.4,9.05,82,7,1.34
460,US,Syosset,40.8262,-73.5021,2.66,6.25,64,6,2.18
461,US,Lake Shore,39.1071,-76.485,5.58,7.68,53,0,3.6
462,HU,Dabas,47.1859,19.3109,9.9,11.72,47,100,2.86
463,CH,Fribourg,46.8024,7.1513,11.22,14.49,58,0,1.89
464,RU,Demyansk,57.643,32.466,9.29,9.29,52,39,2.01
465,RO,Redea,44.05,24.3,8.45,8.45,71,100,2.83
466,IN,Damoh,23.8333,79.45,41.7,41.7,9,3,5.2
467,SE,Linköping,58.4109,15.6216,12.79,13.88,52,100,1.54
468,US,Shelbyville,35.4834,-86.4603,9.8,11.42,47,100,0.45
469,PH,Magugpo Poblacion,7.4478,125.8078,26.95,26.95,96,100,1.33
470,US,Cutler Bay,25.5783,-80.3377,23.75,25.01,85,40,3.6
471,ID,Kasihan,-7.8269,110.3292,27.98,27.98,82,68,1.88
472,RO,Scundu,44.8333,24.2,7.47,7.47,59,73,3.66
473,BF,Boromo,11.75,-2.9333,33.76,33.76,12,88,3.8
474,HU,Rakamaz,48.1333,21.4667,9.1,9.1,40,40,3.78
475,ES,Premià de Mar,41.4921,2.3652,17.57,23.67,70,80,4.47
476,TR,Uşak Province,38.5,29.4167,17.98,17.98,47,10,8.77
477,BR,Poços de Caldas,-21.7878,-46.5614,11.41,11.41,91,0,1.5
478,IN,Itimādpur,27.25,78.2,43.87,43.87,5,0,5.04
479,RO,Bălan,46.6505,25.8083,4.47,4.47,37,93,1.47
480,RU,Yaroslavskaya,44.6106,40.4642,27.06,27.06,29,45,1.83
481,CO,Caramanta,5.5478,-75.6437,13.75,13.75,99,100,0.12
482,RU,Tazovsky,67.4667,78.7,-5.37,-5.37,82,100,8.47
483,RO,Dragomireşti,44.9167,25.3333,9.03,9.03,38,92,2.55
484,MX,Frontera,26.9333,-101.45,24.62,24.62,65,85,0.45
485,IT,Parma,44.8027,10.329,16.39,16.64,10,9,2.74
486,BR,Rancharia,-22.2292,-50.8931,12.72,12.72,93,6,3.49
487,IN,Vāghodia,22.3,73.3833,38.92,38.92,22,0,3.09
488,UY,Getulio Vargas,-32.6796,-53.5494,14.04,14.04,92,99,1.56
489,AL,Këlcyrë,40.3131,20.1894,8.43,8.43,90,100,2.01
490,HT,Hinche,19.15,-72.0167,20.66,20.66,87,100,1.41
491,MY,Semporna,4.4818,118.6112,28.14,28.14,76,12,4.41
492,CI,Aboisso,5.4678,-3.2071,29.06,29.06,71,100,2.72
493,RU,Provideniya,64.3833,-173.3,-0.84,-0.84,97,100,4.36
494,TN,Radès,36.7681,10.2753,16.95,16.95,48,40,7.2
495,US,Levittown,40.1551,-74.8288,0.46,3.91,71,70,0.45
496,AT,Berndorf,47.9457,16.1097,7.43,9.57,53,75,3.09
497,RU,Belaya Rechka,43.4381,43.535,19.24,19.24,43,100,3.0
498,IT,Lecco,45.8533,9.3905,14.46,16.94,41,17,1.79
499,RU,Vanino,49.0869,140.2543,-2.33,-2.33,94,100,1.01
